{
"type": "FeatureCollection",
"name": "market_p_TYN",
"crs": { "type": "name", "properties": { "name": "urn:ogc:def:crs:OGC:1.3:CRS84" } },
"features": [
{ "type": "Feature", "properties": { "full_id": "n2135707095", "osm_id": "2135707095", "osm_type": "node", "amenity": "marketplace", "name:zh-Hant": null, "tourism": null, "opening_hours": null, "name:zh": null, "name:en": null, "barrier": null, "operator": null, "name": null }, "geometry": { "type": "Point", "coordinates": [ 121.3136932, 25.0109314 ] } },
{ "type": "Feature", "properties": { "full_id": "n3379141998", "osm_id": "3379141998", "osm_type": "node", "amenity": "marketplace", "name:zh-Hant": null, "tourism": null, "opening_hours": null, "name:zh": null, "name:en": null, "barrier": null, "operator": "桃園市政府", "name": "大湳市場" }, "geometry": { "type": "Point", "coordinates": [ 121.2968931, 24.9599363 ] } },
{ "type": "Feature", "properties": { "full_id": "n5240723849", "osm_id": "5240723849", "osm_type": "node", "amenity": null, "name:zh-Hant": null, "tourism": null, "opening_hours": null, "name:zh": null, "name:en": null, "barrier": "gate", "operator": null, "name": null }, "geometry": { "type": "Point", "coordinates": [ 121.2602058, 24.9722262 ] } },
{ "type": "Feature", "properties": { "full_id": "n5430840207", "osm_id": "5430840207", "osm_type": "node", "amenity": "marketplace", "name:zh-Hant": null, "tourism": null, "opening_hours": null, "name:zh": null, "name:en": null, "barrier": null, "operator": null, "name": null }, "geometry": { "type": "Point", "coordinates": [ 121.3373148, 24.9941289 ] } },
{ "type": "Feature", "properties": { "full_id": "n5689377017", "osm_id": "5689377017", "osm_type": "node", "amenity": "marketplace", "name:zh-Hant": null, "tourism": "attraction", "opening_hours": "Tu,Th 17:00-23:00", "name:zh": "大竹夜市", "name:en": "Dazhu Night Market", "barrier": null, "operator": null, "name": "大竹夜市" }, "geometry": { "type": "Point", "coordinates": [ 121.2641043, 25.0218157 ] } },
{ "type": "Feature", "properties": { "full_id": "n6076064360", "osm_id": "6076064360", "osm_type": "node", "amenity": "marketplace", "name:zh-Hant": "力行菜場", "tourism": null, "opening_hours": null, "name:zh": "力行菜場", "name:en": "Lixing Vegetable Market", "barrier": null, "operator": null, "name": "力行菜場" }, "geometry": { "type": "Point", "coordinates": [ 121.3025169, 25.0015692 ] } },
{ "type": "Feature", "properties": { "full_id": "n6854091465", "osm_id": "6854091465", "osm_type": "node", "amenity": "marketplace", "name:zh-Hant": null, "tourism": null, "opening_hours": null, "name:zh": null, "name:en": null, "barrier": null, "operator": null, "name": "大園公有零售市場" }, "geometry": { "type": "Point", "coordinates": [ 121.1983649, 25.0646646 ] } },
{ "type": "Feature", "properties": { "full_id": "n6875064136", "osm_id": "6875064136", "osm_type": "node", "amenity": "marketplace", "name:zh-Hant": null, "tourism": null, "opening_hours": null, "name:zh": null, "name:en": null, "barrier": null, "operator": null, "name": "三沅市場" }, "geometry": { "type": "Point", "coordinates": [ 121.3195378, 25.0031116 ] } },
{ "type": "Feature", "properties": { "full_id": "n8088279214", "osm_id": "8088279214", "osm_type": "node", "amenity": "marketplace", "name:zh-Hant": null, "tourism": null, "opening_hours": null, "name:zh": null, "name:en": null, "barrier": null, "operator": null, "name": "菓林夜市" }, "geometry": { "type": "Point", "coordinates": [ 121.2589983, 25.0737714 ] } },
{ "type": "Feature", "properties": { "full_id": "n8632596652", "osm_id": "8632596652", "osm_type": "node", "amenity": "marketplace", "name:zh-Hant": null, "tourism": null, "opening_hours": null, "name:zh": null, "name:en": null, "barrier": null, "operator": null, "name": "蘆竹鄉公有南崁零售市場" }, "geometry": { "type": "Point", "coordinates": [ 121.2944989, 25.0470968 ] } },
{ "type": "Feature", "properties": { "full_id": "n9482906890", "osm_id": "9482906890", "osm_type": "node", "amenity": "marketplace", "name:zh-Hant": null, "tourism": null, "opening_hours": null, "name:zh": null, "name:en": null, "barrier": null, "operator": null, "name": "大成公有零售市場" }, "geometry": { "type": "Point", "coordinates": [ 121.1455925, 24.9116523 ] } },
{ "type": "Feature", "properties": { "full_id": "n9697623807", "osm_id": "9697623807", "osm_type": "node", "amenity": "marketplace", "name:zh-Hant": null, "tourism": null, "opening_hours": null, "name:zh": null, "name:en": null, "barrier": null, "operator": null, "name": "龜山黃昏市場" }, "geometry": { "type": "Point", "coordinates": [ 121.3589211, 25.053939 ] } }
]
}
