{
"type": "FeatureCollection",
"name": "place_of_workship_p_KEL",
"crs": { "type": "name", "properties": { "name": "urn:ogc:def:crs:OGC:1.3:CRS84" } },
"features": [
{ "type": "Feature", "properties": { "full_id": "n1129844134", "osm_id": "1129844134", "osm_type": "node", "amenity": "place_of_worship", "name:zh": null, "full_name": null, "wikipedia": null, "wikidata": null, "historic:civilization": null, "historic": null, "denomination": null, "church:type": null, "barrier": null, "religion": "taoist", "name": "天顯宮" }, "geometry": { "type": "Point", "coordinates": [ 121.7671043, 25.158139 ] } },
{ "type": "Feature", "properties": { "full_id": "n1741248271", "osm_id": "1741248271", "osm_type": "node", "amenity": "place_of_worship", "name:zh": null, "full_name": null, "wikipedia": null, "wikidata": null, "historic:civilization": null, "historic": null, "denomination": null, "church:type": null, "barrier": null, "religion": "taoist", "name": "東安宮" }, "geometry": { "type": "Point", "coordinates": [ 121.7547672, 25.0776899 ] } },
{ "type": "Feature", "properties": { "full_id": "n1964383640", "osm_id": "1964383640", "osm_type": "node", "amenity": "place_of_worship", "name:zh": null, "full_name": null, "wikipedia": null, "wikidata": null, "historic:civilization": null, "historic": null, "denomination": null, "church:type": null, "barrier": null, "religion": null, "name": "三姓公" }, "geometry": { "type": "Point", "coordinates": [ 121.7355818, 25.1232314 ] } },
{ "type": "Feature", "properties": { "full_id": "n2341676051", "osm_id": "2341676051", "osm_type": "node", "amenity": "place_of_worship", "name:zh": null, "full_name": null, "wikipedia": null, "wikidata": null, "historic:civilization": null, "historic": null, "denomination": null, "church:type": null, "barrier": null, "religion": null, "name": "土地公" }, "geometry": { "type": "Point", "coordinates": [ 121.7834643, 25.1918387 ] } },
{ "type": "Feature", "properties": { "full_id": "n2341676214", "osm_id": "2341676214", "osm_type": "node", "amenity": "place_of_worship", "name:zh": null, "full_name": null, "wikipedia": null, "wikidata": null, "historic:civilization": null, "historic": null, "denomination": null, "church:type": null, "barrier": null, "religion": null, "name": "觀音巖" }, "geometry": { "type": "Point", "coordinates": [ 121.7834657, 25.1920547 ] } },
{ "type": "Feature", "properties": { "full_id": "n2613193154", "osm_id": "2613193154", "osm_type": "node", "amenity": "place_of_worship", "name:zh": null, "full_name": null, "wikipedia": null, "wikidata": null, "historic:civilization": null, "historic": null, "denomination": null, "church:type": null, "barrier": null, "religion": null, "name": "天德教基隆支會" }, "geometry": { "type": "Point", "coordinates": [ 121.766086, 25.1328137 ] } },
{ "type": "Feature", "properties": { "full_id": "n2930844420", "osm_id": "2930844420", "osm_type": "node", "amenity": "place_of_worship", "name:zh": null, "full_name": null, "wikipedia": null, "wikidata": null, "historic:civilization": null, "historic": null, "denomination": null, "church:type": null, "barrier": null, "religion": null, "name": "福德宮" }, "geometry": { "type": "Point", "coordinates": [ 122.0730349, 25.6282218 ] } },
{ "type": "Feature", "properties": { "full_id": "n2930845062", "osm_id": "2930845062", "osm_type": "node", "amenity": "place_of_worship", "name:zh": null, "full_name": null, "wikipedia": null, "wikidata": null, "historic:civilization": null, "historic": null, "denomination": null, "church:type": null, "barrier": null, "religion": null, "name": "觀音巖" }, "geometry": { "type": "Point", "coordinates": [ 122.0749394, 25.6261925 ] } },
{ "type": "Feature", "properties": { "full_id": "n3717038146", "osm_id": "3717038146", "osm_type": "node", "amenity": "place_of_worship", "name:zh": null, "full_name": null, "wikipedia": null, "wikidata": null, "historic:civilization": null, "historic": null, "denomination": null, "church:type": null, "barrier": null, "religion": "buddhist", "name": "紫雲寺" }, "geometry": { "type": "Point", "coordinates": [ 121.7269059, 25.1417651 ] } },
{ "type": "Feature", "properties": { "full_id": "n4158903687", "osm_id": "4158903687", "osm_type": "node", "amenity": "place_of_worship", "name:zh": null, "full_name": null, "wikipedia": null, "wikidata": null, "historic:civilization": null, "historic": null, "denomination": null, "church:type": null, "barrier": null, "religion": null, "name": "萬善堂" }, "geometry": { "type": "Point", "coordinates": [ 122.0729698, 25.628318 ] } },
{ "type": "Feature", "properties": { "full_id": "n4169953585", "osm_id": "4169953585", "osm_type": "node", "amenity": "place_of_worship", "name:zh": null, "full_name": null, "wikipedia": null, "wikidata": null, "historic:civilization": null, "historic": null, "denomination": null, "church:type": null, "barrier": null, "religion": "taoist", "name": "土地公廟" }, "geometry": { "type": "Point", "coordinates": [ 121.7141758, 25.1263287 ] } },
{ "type": "Feature", "properties": { "full_id": "n4169953586", "osm_id": "4169953586", "osm_type": "node", "amenity": "place_of_worship", "name:zh": null, "full_name": null, "wikipedia": null, "wikidata": null, "historic:civilization": null, "historic": null, "denomination": null, "church:type": null, "barrier": null, "religion": "buddhist", "name": "基隆靜思堂" }, "geometry": { "type": "Point", "coordinates": [ 121.7170753, 25.1261781 ] } },
{ "type": "Feature", "properties": { "full_id": "n4272436729", "osm_id": "4272436729", "osm_type": "node", "amenity": "place_of_worship", "name:zh": null, "full_name": null, "wikipedia": null, "wikidata": null, "historic:civilization": null, "historic": null, "denomination": null, "church:type": null, "barrier": null, "religion": null, "name": "來福宮" }, "geometry": { "type": "Point", "coordinates": [ 121.7408432, 25.0895263 ] } },
{ "type": "Feature", "properties": { "full_id": "n4613690361", "osm_id": "4613690361", "osm_type": "node", "amenity": "place_of_worship", "name:zh": null, "full_name": null, "wikipedia": null, "wikidata": null, "historic:civilization": null, "historic": null, "denomination": null, "church:type": null, "barrier": null, "religion": null, "name": null }, "geometry": { "type": "Point", "coordinates": [ 121.8002403, 25.1410056 ] } },
{ "type": "Feature", "properties": { "full_id": "n4804973792", "osm_id": "4804973792", "osm_type": "node", "amenity": "place_of_worship", "name:zh": null, "full_name": null, "wikipedia": null, "wikidata": null, "historic:civilization": null, "historic": null, "denomination": null, "church:type": null, "barrier": null, "religion": null, "name": "土地公廟" }, "geometry": { "type": "Point", "coordinates": [ 121.755746, 25.0727181 ] } },
{ "type": "Feature", "properties": { "full_id": "n5110580381", "osm_id": "5110580381", "osm_type": "node", "amenity": "place_of_worship", "name:zh": null, "full_name": null, "wikipedia": null, "wikidata": null, "historic:civilization": null, "historic": null, "denomination": null, "church:type": null, "barrier": null, "religion": null, "name": null }, "geometry": { "type": "Point", "coordinates": [ 121.7246611, 25.1007015 ] } },
{ "type": "Feature", "properties": { "full_id": "n5171893735", "osm_id": "5171893735", "osm_type": "node", "amenity": null, "name:zh": null, "full_name": null, "wikipedia": null, "wikidata": null, "historic:civilization": null, "historic": null, "denomination": null, "church:type": null, "barrier": "gate", "religion": null, "name": null }, "geometry": { "type": "Point", "coordinates": [ 121.7338863, 25.1351893 ] } },
{ "type": "Feature", "properties": { "full_id": "n5171893736", "osm_id": "5171893736", "osm_type": "node", "amenity": null, "name:zh": null, "full_name": null, "wikipedia": null, "wikidata": null, "historic:civilization": null, "historic": null, "denomination": null, "church:type": null, "barrier": "gate", "religion": null, "name": null }, "geometry": { "type": "Point", "coordinates": [ 121.7339133, 25.1351349 ] } },
{ "type": "Feature", "properties": { "full_id": "n5174754380", "osm_id": "5174754380", "osm_type": "node", "amenity": "place_of_worship", "name:zh": null, "full_name": null, "wikipedia": null, "wikidata": null, "historic:civilization": null, "historic": null, "denomination": "catholic", "church:type": "chapel", "barrier": null, "religion": "christian", "name": "學校教堂" }, "geometry": { "type": "Point", "coordinates": [ 121.7333721, 25.1358171 ] } },
{ "type": "Feature", "properties": { "full_id": "n5249107644", "osm_id": "5249107644", "osm_type": "node", "amenity": "place_of_worship", "name:zh": null, "full_name": null, "wikipedia": null, "wikidata": null, "historic:civilization": null, "historic": null, "denomination": null, "church:type": null, "barrier": null, "religion": "taoist", "name": null }, "geometry": { "type": "Point", "coordinates": [ 121.7402282, 25.1128022 ] } },
{ "type": "Feature", "properties": { "full_id": "n5308291978", "osm_id": "5308291978", "osm_type": "node", "amenity": "place_of_worship", "name:zh": null, "full_name": null, "wikipedia": null, "wikidata": null, "historic:civilization": null, "historic": null, "denomination": null, "church:type": null, "barrier": null, "religion": "taoist", "name": "黃吉公" }, "geometry": { "type": "Point", "coordinates": [ 121.7148377, 25.0759983 ] } },
{ "type": "Feature", "properties": { "full_id": "n5355911902", "osm_id": "5355911902", "osm_type": "node", "amenity": "place_of_worship", "name:zh": null, "full_name": null, "wikipedia": null, "wikidata": null, "historic:civilization": null, "historic": null, "denomination": null, "church:type": null, "barrier": null, "religion": "taoist", "name": "基隆三軍府" }, "geometry": { "type": "Point", "coordinates": [ 121.7270973, 25.1405833 ] } },
{ "type": "Feature", "properties": { "full_id": "n5355918873", "osm_id": "5355918873", "osm_type": "node", "amenity": "place_of_worship", "name:zh": null, "full_name": null, "wikipedia": null, "wikidata": null, "historic:civilization": null, "historic": null, "denomination": null, "church:type": null, "barrier": null, "religion": "taoist", "name": "福德宮" }, "geometry": { "type": "Point", "coordinates": [ 121.742002, 25.1280686 ] } },
{ "type": "Feature", "properties": { "full_id": "n5361893169", "osm_id": "5361893169", "osm_type": "node", "amenity": "place_of_worship", "name:zh": null, "full_name": null, "wikipedia": "zh:基隆神社", "wikidata": "Q10930457", "historic:civilization": "modern", "historic": "ruins", "denomination": null, "church:type": null, "barrier": null, "religion": "shinto", "name": "基隆神社遺址" }, "geometry": { "type": "Point", "coordinates": [ 121.7468228, 25.1314454 ] } },
{ "type": "Feature", "properties": { "full_id": "n7108431001", "osm_id": "7108431001", "osm_type": "node", "amenity": "place_of_worship", "name:zh": null, "full_name": null, "wikipedia": null, "wikidata": null, "historic:civilization": null, "historic": null, "denomination": null, "church:type": null, "barrier": null, "religion": "taoist", "name": "名山宮" }, "geometry": { "type": "Point", "coordinates": [ 121.7494174, 25.1327734 ] } },
{ "type": "Feature", "properties": { "full_id": "n8405844257", "osm_id": "8405844257", "osm_type": "node", "amenity": "place_of_worship", "name:zh": null, "full_name": "台灣基督長老教會基隆教會", "wikipedia": null, "wikidata": null, "historic:civilization": null, "historic": null, "denomination": "presbyterian", "church:type": null, "barrier": null, "religion": "christian", "name": "基隆長老教會" }, "geometry": { "type": "Point", "coordinates": [ 121.7438961, 25.1281459 ] } },
{ "type": "Feature", "properties": { "full_id": "n8440833462", "osm_id": "8440833462", "osm_type": "node", "amenity": "place_of_worship", "name:zh": null, "full_name": null, "wikipedia": null, "wikidata": null, "historic:civilization": null, "historic": null, "denomination": null, "church:type": null, "barrier": null, "religion": "taoist", "name": "五顯宮" }, "geometry": { "type": "Point", "coordinates": [ 121.7322567, 25.1361038 ] } },
{ "type": "Feature", "properties": { "full_id": "n8456654520", "osm_id": "8456654520", "osm_type": "node", "amenity": "place_of_worship", "name:zh": null, "full_name": null, "wikipedia": null, "wikidata": null, "historic:civilization": null, "historic": null, "denomination": null, "church:type": null, "barrier": null, "religion": null, "name": "瑪東福德宮" }, "geometry": { "type": "Point", "coordinates": [ 121.6978195, 25.1167487 ] } },
{ "type": "Feature", "properties": { "full_id": "n8457473917", "osm_id": "8457473917", "osm_type": "node", "amenity": "place_of_worship", "name:zh": null, "full_name": null, "wikipedia": null, "wikidata": null, "historic:civilization": null, "historic": null, "denomination": null, "church:type": null, "barrier": null, "religion": "buddhist", "name": "九華山清湶寺鐘樓" }, "geometry": { "type": "Point", "coordinates": [ 121.7093969, 25.1194226 ] } },
{ "type": "Feature", "properties": { "full_id": "n8528411860", "osm_id": "8528411860", "osm_type": "node", "amenity": "place_of_worship", "name:zh": null, "full_name": null, "wikipedia": null, "wikidata": null, "historic:civilization": null, "historic": null, "denomination": null, "church:type": null, "barrier": null, "religion": null, "name": "閩南檺林宮" }, "geometry": { "type": "Point", "coordinates": [ 121.7382318, 25.1295913 ] } },
{ "type": "Feature", "properties": { "full_id": "n8942965457", "osm_id": "8942965457", "osm_type": "node", "amenity": "place_of_worship", "name:zh": "玉仙姑廟", "full_name": null, "wikipedia": null, "wikidata": null, "historic:civilization": null, "historic": null, "denomination": null, "church:type": null, "barrier": null, "religion": null, "name": "玉仙姑廟" }, "geometry": { "type": "Point", "coordinates": [ 121.7229691, 25.1506571 ] } },
{ "type": "Feature", "properties": { "full_id": "n8942965458", "osm_id": "8942965458", "osm_type": "node", "amenity": "place_of_worship", "name:zh": "慈慧宮", "full_name": null, "wikipedia": null, "wikidata": null, "historic:civilization": null, "historic": null, "denomination": null, "church:type": null, "barrier": null, "religion": null, "name": "慈慧宮" }, "geometry": { "type": "Point", "coordinates": [ 121.7195114, 25.1591678 ] } },
{ "type": "Feature", "properties": { "full_id": "n8948462720", "osm_id": "8948462720", "osm_type": "node", "amenity": "place_of_worship", "name:zh": null, "full_name": null, "wikipedia": null, "wikidata": null, "historic:civilization": null, "historic": null, "denomination": null, "church:type": null, "barrier": null, "religion": null, "name": "福德宮" }, "geometry": { "type": "Point", "coordinates": [ 121.6795889, 25.1248217 ] } },
{ "type": "Feature", "properties": { "full_id": "n9436157915", "osm_id": "9436157915", "osm_type": "node", "amenity": "place_of_worship", "name:zh": null, "full_name": null, "wikipedia": null, "wikidata": null, "historic:civilization": null, "historic": null, "denomination": null, "church:type": null, "barrier": null, "religion": null, "name": "福德宮" }, "geometry": { "type": "Point", "coordinates": [ 121.6448213, 25.1317988 ] } },
{ "type": "Feature", "properties": { "full_id": "n9542983119", "osm_id": "9542983119", "osm_type": "node", "amenity": "place_of_worship", "name:zh": null, "full_name": null, "wikipedia": null, "wikidata": null, "historic:civilization": null, "historic": null, "denomination": null, "church:type": null, "barrier": null, "religion": null, "name": "蝙蝠洞福德宮" }, "geometry": { "type": "Point", "coordinates": [ 121.746467, 25.1147837 ] } },
{ "type": "Feature", "properties": { "full_id": "n9822462537", "osm_id": "9822462537", "osm_type": "node", "amenity": "place_of_worship", "name:zh": null, "full_name": null, "wikipedia": null, "wikidata": null, "historic:civilization": null, "historic": null, "denomination": null, "church:type": null, "barrier": null, "religion": null, "name": "福興宮" }, "geometry": { "type": "Point", "coordinates": [ 121.7382936, 25.1467184 ] } },
{ "type": "Feature", "properties": { "full_id": "n9893511655", "osm_id": "9893511655", "osm_type": "node", "amenity": "place_of_worship", "name:zh": null, "full_name": null, "wikipedia": null, "wikidata": null, "historic:civilization": null, "historic": null, "denomination": null, "church:type": null, "barrier": null, "religion": "buddhist", "name": "福泉寺" }, "geometry": { "type": "Point", "coordinates": [ 121.7890081, 25.1422067 ] } }
]
}
